{
  "districts": [
    {
      "code": "11680",
      "name": "강남구",
      "complaints": {
        "교통·주차": 1250,
        "도로·시설물": 890,
        "환경·청소": 650,
        "건축·주택": 420,
        "복지·보건": 380,
        "세무·요금": 290,
        "안전·재난": 180,
        "문화·관광": 150,
        "교육·청소년": 120,
        "민원행정": 200,
        "기타": 170
      },
      "totalComplaints": 4700,
      "coordinates": { "lat": 37.5172, "lng": 127.0473 }
    },
    {
      "code": "11740",
      "name": "강동구",
      "complaints": {
        "교통·주차": 980,
        "도로·시설물": 720,
        "환경·청소": 580,
        "건축·주택": 350,
        "복지·보건": 320,
        "세무·요금": 240,
        "안전·재난": 150,
        "문화·관광": 110,
        "교육·청소년": 100,
        "민원행정": 180,
        "기타": 140
      },
      "totalComplaints": 3870,
      "coordinates": { "lat": 37.5301, "lng": 127.1238 }
    },
    {
      "code": "11305",
      "name": "강북구",
      "complaints": {
        "교통·주차": 720,
        "도로·시설물": 650,
        "환경·청소": 520,
        "건축·주택": 380,
        "복지·보건": 410,
        "세무·요금": 200,
        "안전·재난": 170,
        "문화·관광": 80,
        "교육·청소년": 90,
        "민원행정": 150,
        "기타": 130
      },
      "totalComplaints": 3500,
      "coordinates": { "lat": 37.6396, "lng": 127.0253 }
    },
    {
      "code": "11500",
      "name": "강서구",
      "complaints": {
        "교통·주차": 1150,
        "도로·시설물": 880,
        "환경·청소": 720,
        "건축·주택": 450,
        "복지·보건": 390,
        "세무·요금": 310,
        "안전·재난": 200,
        "문화·관광": 130,
        "교육·청소년": 140,
        "민원행정": 220,
        "기타": 180
      },
      "totalComplaints": 4770,
      "coordinates": { "lat": 37.5509, "lng": 126.8495 }
    },
    {
      "code": "11620",
      "name": "관악구",
      "complaints": {
        "교통·주차": 890,
        "도로·시설물": 680,
        "환경·청소": 590,
        "건축·주택": 520,
        "복지·보건": 450,
        "세무·요금": 280,
        "안전·재난": 160,
        "문화·관광": 90,
        "교육·청소년": 180,
        "민원행정": 170,
        "기타": 150
      },
      "totalComplaints": 4160,
      "coordinates": { "lat": 37.4784, "lng": 126.9516 }
    },
    {
      "code": "11215",
      "name": "광진구",
      "complaints": {
        "교통·주차": 780,
        "도로·시설물": 590,
        "환경·청소": 480,
        "건축·주택": 340,
        "복지·보건": 310,
        "세무·요금": 230,
        "안전·재난": 140,
        "문화·관광": 120,
        "교육·청소년": 110,
        "민원행정": 160,
        "기타": 120
      },
      "totalComplaints": 3380,
      "coordinates": { "lat": 37.5385, "lng": 127.0823 }
    },
    {
      "code": "11530",
      "name": "구로구",
      "complaints": {
        "교통·주차": 950,
        "도로·시설물": 780,
        "환경·청소": 640,
        "건축·주택": 420,
        "복지·보건": 380,
        "세무·요금": 290,
        "안전·재난": 180,
        "문화·관광": 100,
        "교육·청소년": 130,
        "민원행정": 190,
        "기타": 160
      },
      "totalComplaints": 4220,
      "coordinates": { "lat": 37.4954, "lng": 126.8874 }
    },
    {
      "code": "11545",
      "name": "금천구",
      "complaints": {
        "교통·주차": 620,
        "도로·시설물": 510,
        "환경·청소": 430,
        "건축·주택": 280,
        "복지·보건": 260,
        "세무·요금": 190,
        "안전·재난": 120,
        "문화·관광": 70,
        "교육·청소년": 80,
        "민원행정": 130,
        "기타": 100
      },
      "totalComplaints": 2790,
      "coordinates": { "lat": 37.4519, "lng": 126.9020 }
    },
    {
      "code": "11350",
      "name": "노원구",
      "complaints": {
        "교통·주차": 1050,
        "도로·시설물": 820,
        "환경·청소": 680,
        "건축·주택": 450,
        "복지·보건": 420,
        "세무·요금": 320,
        "안전·재난": 190,
        "문화·관광": 110,
        "교육·청소년": 170,
        "민원행정": 210,
        "기타": 160
      },
      "totalComplaints": 4580,
      "coordinates": { "lat": 37.6543, "lng": 127.0568 }
    },
    {
      "code": "11320",
      "name": "도봉구",
      "complaints": {
        "교통·주차": 680,
        "도로·시설물": 560,
        "환경·청소": 470,
        "건축·주택": 320,
        "복지·보건": 350,
        "세무·요금": 210,
        "안전·재난": 140,
        "문화·관광": 90,
        "교육·청소년": 100,
        "민원행정": 140,
        "기타": 110
      },
      "totalComplaints": 3170,
      "coordinates": { "lat": 37.6688, "lng": 127.0471 }
    },
    {
      "code": "11230",
      "name": "동대문구",
      "complaints": {
        "교통·주차": 820,
        "도로·시설물": 650,
        "환경·청소": 540,
        "건축·주택": 390,
        "복지·보건": 360,
        "세무·요금": 250,
        "안전·재난": 150,
        "문화·관광": 130,
        "교육·청소년": 110,
        "민원행정": 170,
        "기타": 130
      },
      "totalComplaints": 3700,
      "coordinates": { "lat": 37.5744, "lng": 127.0399 }
    },
    {
      "code": "11590",
      "name": "동작구",
      "complaints": {
        "교통·주차": 750,
        "도로·시설물": 580,
        "환경·청소": 490,
        "건축·주택": 350,
        "복지·보건": 320,
        "세무·요금": 230,
        "안전·재난": 140,
        "문화·관광": 100,
        "교육·청소년": 120,
        "민원행정": 150,
        "기타": 120
      },
      "totalComplaints": 3350,
      "coordinates": { "lat": 37.5124, "lng": 126.9393 }
    },
    {
      "code": "11440",
      "name": "마포구",
      "complaints": {
        "교통·주차": 920,
        "도로·시설물": 710,
        "환경·청소": 580,
        "건축·주택": 420,
        "복지·보건": 350,
        "세무·요금": 280,
        "안전·재난": 170,
        "문화·관광": 180,
        "교육·청소년": 130,
        "민원행정": 190,
        "기타": 150
      },
      "totalComplaints": 4080,
      "coordinates": { "lat": 37.5663, "lng": 126.9014 }
    },
    {
      "code": "11410",
      "name": "서대문구",
      "complaints": {
        "교통·주차": 710,
        "도로·시설물": 550,
        "환경·청소": 460,
        "건축·주택": 340,
        "복지·보건": 330,
        "세무·요금": 220,
        "안전·재난": 130,
        "문화·관광": 100,
        "교육·청소년": 140,
        "민원행정": 150,
        "기타": 110
      },
      "totalComplaints": 3240,
      "coordinates": { "lat": 37.5791, "lng": 126.9368 }
    },
    {
      "code": "11650",
      "name": "서초구",
      "complaints": {
        "교통·주차": 1180,
        "도로·시설물": 850,
        "환경·청소": 620,
        "건축·주택": 400,
        "복지·보건": 350,
        "세무·요금": 280,
        "안전·재난": 170,
        "문화·관광": 160,
        "교육·청소년": 130,
        "민원행정": 200,
        "기타": 160
      },
      "totalComplaints": 4500,
      "coordinates": { "lat": 37.4837, "lng": 127.0324 }
    },
    {
      "code": "11200",
      "name": "성동구",
      "complaints": {
        "교통·주차": 760,
        "도로·시설물": 590,
        "환경·청소": 480,
        "건축·주택": 350,
        "복지·보건": 300,
        "세무·요금": 230,
        "안전·재난": 140,
        "문화·관광": 110,
        "교육·청소년": 100,
        "민원행정": 160,
        "기타": 120
      },
      "totalComplaints": 3340,
      "coordinates": { "lat": 37.5634, "lng": 127.0369 }
    },
    {
      "code": "11290",
      "name": "성북구",
      "complaints": {
        "교통·주차": 850,
        "도로·시설물": 680,
        "환경·청소": 560,
        "건축·주택": 420,
        "복지·보건": 400,
        "세무·요금": 260,
        "안전·재난": 160,
        "문화·관광": 100,
        "교육·청소년": 140,
        "민원행정": 180,
        "기타": 140
      },
      "totalComplaints": 3890,
      "coordinates": { "lat": 37.5894, "lng": 127.0167 }
    },
    {
      "code": "11710",
      "name": "송파구",
      "complaints": {
        "교통·주차": 1200,
        "도로·시설물": 920,
        "환경·청소": 750,
        "건축·주택": 480,
        "복지·보건": 420,
        "세무·요금": 330,
        "안전·재난": 200,
        "문화·관광": 170,
        "교육·청소년": 160,
        "민원행정": 230,
        "기타": 180
      },
      "totalComplaints": 5040,
      "coordinates": { "lat": 37.5145, "lng": 127.1059 }
    },
    {
      "code": "11470",
      "name": "양천구",
      "complaints": {
        "교통·주차": 880,
        "도로·시설물": 690,
        "환경·청소": 570,
        "건축·주택": 380,
        "복지·보건": 350,
        "세무·요금": 260,
        "안전·재난": 160,
        "문화·관광": 100,
        "교육·청소년": 140,
        "민원행정": 180,
        "기타": 140
      },
      "totalComplaints": 3850,
      "coordinates": { "lat": 37.5169, "lng": 126.8665 }
    },
    {
      "code": "11560",
      "name": "영등포구",
      "complaints": {
        "교통·주차": 980,
        "도로·시설물": 780,
        "환경·청소": 650,
        "건축·주택": 450,
        "복지·보건": 380,
        "세무·요금": 300,
        "안전·재난": 180,
        "문화·관광": 150,
        "교육·청소년": 120,
        "민원행정": 200,
        "기타": 160
      },
      "totalComplaints": 4350,
      "coordinates": { "lat": 37.5264, "lng": 126.8963 }
    },
    {
      "code": "11170",
      "name": "용산구",
      "complaints": {
        "교통·주차": 720,
        "도로·시설물": 550,
        "환경·청소": 450,
        "건축·주택": 320,
        "복지·보건": 280,
        "세무·요금": 220,
        "안전·재난": 140,
        "문화·관광": 180,
        "교육·청소년": 90,
        "민원행정": 150,
        "기타": 110
      },
      "totalComplaints": 3210,
      "coordinates": { "lat": 37.5324, "lng": 126.9906 }
    },
    {
      "code": "11380",
      "name": "은평구",
      "complaints": {
        "교통·주차": 850,
        "도로·시설물": 680,
        "환경·청소": 560,
        "건축·주택": 400,
        "복지·보건": 380,
        "세무·요금": 260,
        "안전·재난": 160,
        "문화·관광": 100,
        "교육·청소년": 130,
        "민원행정": 170,
        "기타": 140
      },
      "totalComplaints": 3830,
      "coordinates": { "lat": 37.6026, "lng": 126.9291 }
    },
    {
      "code": "11110",
      "name": "종로구",
      "complaints": {
        "교통·주차": 680,
        "도로·시설물": 520,
        "환경·청소": 420,
        "건축·주택": 310,
        "복지·보건": 270,
        "세무·요금": 210,
        "안전·재난": 130,
        "문화·관광": 240,
        "교육·청소년": 80,
        "민원행정": 180,
        "기타": 110
      },
      "totalComplaints": 3150,
      "coordinates": { "lat": 37.5735, "lng": 126.9790 }
    },
    {
      "code": "11140",
      "name": "중구",
      "complaints": {
        "교통·주차": 650,
        "도로·시설물": 490,
        "환경·청소": 400,
        "건축·주택": 280,
        "복지·보건": 240,
        "세무·요금": 200,
        "안전·재난": 120,
        "문화·관광": 220,
        "교육·청소년": 70,
        "민원행정": 170,
        "기타": 100
      },
      "totalComplaints": 2940,
      "coordinates": { "lat": 37.5641, "lng": 126.9979 }
    },
    {
      "code": "11260",
      "name": "중랑구",
      "complaints": {
        "교통·주차": 780,
        "도로·시설물": 620,
        "환경·청소": 520,
        "건축·주택": 370,
        "복지·보건": 350,
        "세무·요금": 240,
        "안전·재난": 150,
        "문화·관광": 90,
        "교육·청소년": 110,
        "민원행정": 160,
        "기타": 130
      },
      "totalComplaints": 3520,
      "coordinates": { "lat": 37.6063, "lng": 127.0925 }
    }
  ],
  "dataStatus": {
    "collectionPeriod": {
      "start": "2024-01-01",
      "end": "2024-12-31"
    },
    "lastUpdated": "2024-12-20T09:30:00",
    "totalRecords": 95820,
    "totalDistricts": 25,
    "monthlyRecords": 12434
  }
}
